City_ID,City,Lat,Lng,Max Temp,Humidity,Cloudiness,Wind Speed,Country,Date
0,mil'kovo,55.6078,37.7956,0.22,94,100,1.92,RU,1698626986
1,iqaluit,63.7506,-68.5145,-8.15,73,100,5.14,CA,1698626986
2,lapeer,43.0514,-83.3188,8.21,76,100,1.54,US,1698626986
3,tiksi,71.6872,128.8694,-16.28,98,98,3.05,RU,1698626987
4,cooma,-36.2333,149.1333,22.94,25,100,8.33,AU,1698626987
5,stanley,54.868,-1.6985,7.62,95,75,3.6,GB,1698626987
6,olonkinbyen,70.9221,-8.7187,0.33,69,100,1.61,SJ,1698626987
7,port-aux-francais,-49.35,70.2167,1.76,67,96,11.48,TF,1698626987
8,san andres,12.5847,-81.7006,26.01,94,20,1.03,CO,1698626881
9,port elizabeth,-33.918,25.5701,14.16,88,75,4.12,ZA,1698626987
10,qamdo,31.1667,97.2333,-2.55,33,100,1.69,CN,1698626762
11,invercargill,-46.4,168.35,17.23,48,5,1.34,NZ,1698626988
12,albany,42.6001,-73.9662,6.47,93,100,0.71,US,1698626988
13,ushuaia,-54.8,-68.3,0.81,75,75,6.17,AR,1698626988
14,afaahiti,-17.75,-149.2833,26.93,81,45,7.48,PF,1698626988
15,prince rupert,54.3161,-130.3201,6.83,75,0,2.06,CA,1698626988
16,petropavlovsk-kamchatsky,53.0452,158.6483,3.03,59,75,4.0,RU,1698626988
17,waitangi,-43.9535,-176.5597,11.14,77,5,3.73,NZ,1698626988
18,saipan,15.1355,145.701,31.39,74,40,6.17,MP,1698626989
19,coronel suarez,-37.4547,-61.9334,9.77,75,55,9.78,AR,1698626989
20,enterprise,36.0252,-115.2419,16.61,15,0,8.75,US,1698626989
21,adamstown,-25.066,-130.1015,22.52,82,100,4.7,PN,1698626989
22,labasa,-16.4167,179.3833,29.55,68,68,2.0,FJ,1698626989
23,ribeira grande,38.5167,-28.7,17.6,63,100,1.76,PT,1698626989
24,taltal,-25.4,-70.4833,16.81,78,23,1.12,CL,1698626766
25,puerto natales,-51.7236,-72.4875,1.74,84,97,2.48,CL,1698626990
26,st. john's,47.5649,-52.7093,5.54,69,75,11.32,CA,1698626990
27,sitka,57.0531,-135.33,7.94,66,75,2.06,US,1698626990
28,bethel,41.3712,-73.414,9.55,88,100,3.09,US,1698626953
29,rabigh,22.7986,39.0349,28.44,58,0,1.94,SA,1698626990
30,al hawatah,13.4167,34.6333,23.59,73,100,3.07,SD,1698626990
31,avarua,-21.2078,-159.775,25.03,61,40,4.12,CK,1698626990
32,carnarvon,-24.8667,113.6333,21.46,62,0,10.11,AU,1698626990
33,fale old settlement,-9.3852,-171.2468,28.86,69,100,4.74,TK,1698626724
34,bhadasar,28.2833,74.3167,24.83,33,0,2.29,IN,1698626991
35,luderitz,-26.6481,15.1594,21.7,29,2,4.78,NA,1698626734
36,puerto ayora,-0.7393,-90.3518,24.19,90,100,2.24,EC,1698626789
37,ilulissat,69.2167,-51.1,-4.99,86,100,2.06,GL,1698626991
38,konarka,19.9,86.1167,21.22,77,11,3.14,IN,1698626991
39,uruzgan,32.8333,66.0,12.98,36,0,2.42,AF,1698626991
40,edinburgh of the seven seas,-37.0676,-12.3116,10.85,66,26,12.11,SH,1698626992
41,fort mcmurray,56.7268,-111.381,-1.27,64,0,0.51,CA,1698626722
42,arrifes,37.7667,-25.7,14.14,77,40,2.57,PT,1698626992
43,punasa,22.2333,76.4,18.64,52,100,1.94,IN,1698626992
44,nyaunglebin,17.95,96.7333,24.44,90,98,1.71,MM,1698626992
45,ancud,-41.8697,-73.8203,7.19,82,100,10.2,CL,1698626992
46,yellowknife,62.456,-114.3525,-6.44,96,20,2.06,CA,1698626992
47,howrah,22.5892,88.3103,22.0,94,20,0.0,IN,1698626992
48,east london,-33.0153,27.9116,14.24,65,78,5.36,ZA,1698626993
49,el alto,-4.2714,-81.2147,19.81,79,100,8.39,PE,1698626993
50,holualoa,19.6228,-155.9522,27.92,69,20,5.14,US,1698626695
51,sinabang,2.4803,96.3801,26.3,82,98,1.11,ID,1698626993
52,augusta,48.3667,10.8833,9.18,93,75,0.51,DE,1698626993
53,quang ngai,15.1167,108.8,26.63,84,72,2.43,VN,1698626993
54,igarka,67.4667,86.5833,-17.2,97,45,0.97,RU,1698626993
55,vorgashor,67.5833,63.95,-18.26,98,33,2.21,RU,1698626993
56,grytviken,-54.2811,-36.5092,4.56,99,100,3.18,GS,1698626993
57,blackmans bay,-43.0167,147.3167,16.07,58,86,3.62,AU,1698626994
58,ust-nera,64.5667,143.2,-12.89,93,100,0.57,RU,1698626735
59,khandyga,62.6667,135.6,-5.68,94,100,1.47,RU,1698626698
60,hermanus,-34.4187,19.2345,12.99,61,0,10.34,ZA,1698626994
61,nalut,30.3333,10.85,22.37,22,100,5.57,LY,1698626994
62,badger,64.8,-147.5333,1.56,87,40,1.54,US,1698626707
63,udachny,66.4167,112.4,-21.42,76,95,1.93,RU,1698626994
64,isafjordur,66.0755,-23.124,1.02,80,17,1.46,IS,1698626994
65,aasiaat,68.7098,-52.8699,-4.56,76,100,2.82,GL,1698626995
66,taxisco,14.0708,-90.4631,23.58,92,100,1.26,GT,1698626995
67,xinglongshan,43.9561,125.4661,12.86,67,40,5.0,CN,1698626995
68,powell,40.1578,-83.0752,12.59,97,100,0.45,US,1698626995
69,lamu,-2.2717,40.902,25.12,85,84,3.9,KE,1698626995
70,karachi,24.9056,67.0822,21.9,88,4,0.0,PK,1698626231
71,souillac,-20.5167,57.5167,23.21,88,40,1.03,MU,1698626995
72,the pas,53.8251,-101.2541,-2.99,86,20,3.6,CA,1698626995
73,port lincoln,-34.7333,135.8667,16.12,52,84,9.43,AU,1698626996
74,al qubbah,32.7616,22.2424,15.95,95,88,3.25,LY,1698626996
75,hasaki,35.7333,140.8333,20.16,60,0,8.04,JP,1698626996
76,manado,1.487,124.8455,31.43,55,20,1.03,ID,1698626996
77,cambria,35.5641,-121.0808,21.54,64,0,0.45,US,1698626996
78,saint-pierre,-21.3393,55.4781,24.82,73,100,3.6,RE,1698626996
79,helston,50.1032,-5.2705,13.11,82,100,6.17,GB,1698626996
80,wailua homesteads,22.0669,-159.378,27.44,73,75,4.63,US,1698626997
81,malvik,63.4333,10.6833,-1.94,91,0,3.09,NO,1698626997
82,north bend,43.4065,-124.2243,18.95,42,0,1.54,US,1698626997
83,college,64.8569,-147.8028,1.61,77,100,1.54,US,1698626997
84,kiunga,-6.1219,141.2906,25.43,89,100,1.31,PG,1698626997
85,new norfolk,-42.7826,147.0587,16.72,64,93,3.7,AU,1698626997
86,trincomalee,8.5711,81.2335,25.83,82,100,1.12,LK,1698626997
87,tondano,1.3038,124.9112,27.05,52,100,1.5,ID,1698626997
88,antofagasta,-23.65,-70.4,17.6,77,42,2.82,CL,1698626866
89,usinsk,65.9939,57.5281,-11.63,87,100,2.68,RU,1698626998
90,punta arenas,-53.15,-70.9167,5.06,60,20,8.23,CL,1698626921
91,queenstown,-31.8976,26.8753,4.08,82,16,5.81,ZA,1698626998
92,tarawa,1.419,172.984,32.05,66,20,2.57,KI,1698626998
93,del rio,29.3627,-100.8968,10.01,87,100,11.83,US,1698626998
94,axim,4.8699,-2.2405,25.81,86,6,1.27,GH,1698626998
95,fort bragg,35.139,-79.006,21.75,78,0,0.0,US,1698626998
96,grand falls-windsor,48.9332,-55.6649,3.61,63,38,0.45,CA,1698626909
97,barcelos,41.5388,-8.6151,14.08,81,98,5.3,PT,1698626759
98,nemuro,43.3236,145.575,10.13,68,9,3.67,JP,1698626999
99,arraial do cabo,-22.9661,-42.0278,23.55,93,100,2.48,BR,1698626970
100,mossel bay,-34.1831,22.146,13.46,64,2,7.75,ZA,1698626999
101,papatowai,-46.5619,169.4708,14.79,54,7,5.12,NZ,1698626999
102,guerrero negro,27.9769,-114.0611,23.34,46,0,6.36,MX,1698626818
103,manay,7.215,126.5397,28.76,70,95,1.24,PH,1698626999
104,thunder bay,48.4001,-89.3168,-1.01,51,100,5.66,CA,1698626999
105,gemena,3.25,19.7667,21.48,97,91,0.69,CD,1698627000
106,alofi,-19.0595,-169.9187,27.94,69,13,7.2,NU,1698627000
107,agadez,19.75,10.25,24.09,17,16,3.53,NE,1698627000
108,praia da vitoria,38.7333,-27.0667,13.75,94,20,2.39,PT,1698627000
109,la passe,45.5549,-0.8967,12.21,96,100,5.64,FR,1698627000
110,iskateley,67.6803,53.1512,-8.88,86,100,5.81,RU,1698626726
111,nicoya,10.1483,-85.452,23.46,94,100,1.14,CR,1698627001
112,santa maria,-29.6842,-53.8069,21.61,88,0,2.06,BR,1698626646
113,whitehorse,60.7161,-135.0538,-1.06,87,75,7.2,CA,1698626793
114,salinas,36.6777,-121.6555,23.2,62,0,2.06,US,1698626956
115,formosa do rio preto,-11.0483,-45.1931,25.62,23,0,1.85,BR,1698627001
116,phan rang-thap cham,11.5667,108.9833,28.32,71,40,2.36,VN,1698627001
117,butembo,0.15,29.2833,13.35,95,57,1.34,CD,1698627002
118,quellon,-43.1167,-73.6167,6.13,87,100,5.15,CL,1698627002
119,lerwick,60.1545,-1.1494,8.0,66,12,13.25,GB,1698627002
120,noosa heads,-26.3833,153.15,25.74,58,0,4.13,AU,1698627002
121,piton saint-leu,-21.2196,55.3151,23.06,73,100,3.6,RE,1698627003
122,vernon,50.2581,-119.2691,6.2,54,13,0.51,CA,1698627003
123,umm kaddadah,13.6017,26.6876,27.43,16,41,4.38,SD,1698627003
124,hampton bays,40.869,-72.5176,14.36,92,100,5.14,US,1698627003
125,cabo san lucas,22.8909,-109.9124,27.61,69,0,5.14,MX,1698626784
126,arris,35.2588,6.3471,15.02,41,38,3.9,DZ,1698627004
127,fuxin,42.0156,121.6589,11.65,28,0,4.23,CN,1698627004
128,kertih,4.5141,103.4483,26.62,82,100,1.0,MY,1698627004
129,hadibu,12.65,54.0333,25.68,80,93,3.06,YE,1698627004
130,akdepe,42.0551,59.3788,10.05,51,91,1.64,TM,1698627005
131,necochea,-38.5473,-58.7368,14.63,41,100,4.56,AR,1698627005
132,coyhaique,-45.5752,-72.0662,3.34,80,75,1.54,CL,1698626897
133,hun,29.1268,15.9477,20.43,52,81,3.38,LY,1698627005
134,contamana,-7.3333,-75.0167,24.53,87,100,1.55,PE,1698627006
135,vadso,70.0744,29.7487,-4.91,86,100,3.6,NO,1698627006
136,lensk,60.7253,114.9278,-5.67,63,100,3.86,RU,1698627006
137,thompson,55.7435,-97.8558,-3.91,74,75,4.12,CA,1698627006
138,atherton,53.5237,-2.4935,10.25,92,97,2.74,GB,1698627007
139,soio,-6.1349,12.3689,25.43,89,95,5.15,AO,1698627007
140,tolanaro,-25.0319,46.9987,23.04,88,20,1.03,MG,1698627007
141,puntarenas,9.9763,-84.8384,25.11,88,100,1.82,CR,1698627007
142,sabang,5.8933,95.3214,27.52,75,100,3.4,ID,1698627007
143,dubna,56.7333,37.1667,-0.43,90,100,1.59,RU,1698627008
144,constantia,44.1833,28.65,12.61,70,0,3.33,RO,1698627008
145,hawaiian paradise park,19.5933,-154.9731,27.73,76,40,3.6,US,1698626896
146,turpan,42.9333,89.1667,14.51,36,100,0.2,CN,1698627008
147,makoua,0.0069,15.6333,24.84,78,100,0.92,CG,1698627008
148,santa sylvina,-27.8326,-61.1375,22.91,70,23,6.57,AR,1698627008
149,codrington,-38.2667,141.9667,11.01,91,100,4.61,AU,1698626757
150,alice springs,-23.7,133.8833,33.75,6,35,7.2,AU,1698626958
151,manicore,-5.8092,-61.3003,29.74,39,16,0.72,BR,1698627009
152,margaret river,-33.95,115.0667,13.45,61,100,3.96,AU,1698627009
153,yiwu,29.3151,120.0768,20.67,67,7,0.52,CN,1698627009
154,kodiak,57.79,-152.4072,8.73,93,100,3.6,US,1698627009
155,kidal,18.4411,1.4078,27.38,11,1,4.17,ML,1698627010
156,port saint john's,-31.6229,29.5448,14.37,63,95,2.25,ZA,1698627010
157,carutapera,-1.195,-46.02,26.18,78,14,3.77,BR,1698627010
158,hilo,19.7297,-155.09,31.82,79,40,3.6,US,1698626777
159,pemangkat,1.1667,108.9667,26.8,80,90,1.28,ID,1698627010
160,orland,39.7474,-122.1964,24.17,19,0,3.0,US,1698627011
161,tsiombe,-25.3,45.4833,20.78,84,0,2.43,MG,1698626713
162,dudinka,69.4058,86.1778,-19.66,99,67,0.69,RU,1698627011
163,burang,30.25,81.1667,-1.08,82,4,0.94,CN,1698627011
164,ghormach,35.7306,63.7826,18.56,32,7,1.34,AF,1698627011
165,nikol'sk,53.7189,46.0712,0.32,91,100,5.92,RU,1698627012
166,guanica,17.9716,-66.908,27.21,71,99,3.81,PR,1698627012
167,vila franca do campo,37.7167,-25.4333,15.23,99,100,1.36,PT,1698627012
168,sao benedito do rio preto,-3.3336,-43.5283,24.14,79,7,1.88,BR,1698627012
169,severo-yeniseyskiy,60.3725,93.0408,-15.79,99,87,0.89,RU,1698627012
170,bredasdorp,-34.5322,20.0403,13.02,59,0,8.5,ZA,1698627012
171,larkird,35.4894,66.6641,12.08,62,7,1.49,AF,1698627013
172,zakamensk,50.3741,103.2863,-4.34,84,100,0.68,RU,1698627013
173,lagos,6.5833,3.75,27.18,93,67,0.79,NG,1698626906
174,zavallya,48.2135,30.0156,11.78,60,100,3.74,UA,1698627013
175,oum el bouaghi,35.8754,7.1135,18.25,34,100,4.55,DZ,1698627013
176,siavonga,-16.5382,28.7088,26.63,56,98,1.6,ZM,1698627013
177,laguna,38.421,-121.4238,23.16,20,0,3.6,US,1698627014
178,eureka,40.8021,-124.1637,17.34,83,0,1.24,US,1698626911
179,kingscliff,-28.2667,153.5667,27.19,50,0,8.23,AU,1698627014
180,boyolangu,-8.1181,111.8935,28.43,63,24,3.46,ID,1698627014
181,carroll,39.5501,-77.0164,18.13,88,100,0.45,US,1698627014
182,ocean shores,46.9737,-124.1563,12.75,62,6,1.34,US,1698627004
183,maintirano,-18.0667,44.0167,25.0,81,4,4.43,MG,1698627015
184,yanykurgan,43.915,67.2481,14.96,54,27,1.98,KZ,1698627015
185,ringkobing,56.0901,8.244,10.01,86,97,5.76,DK,1698627015
186,city of balikpapan,-1.242,116.8942,29.97,79,40,1.54,ID,1698627015
187,west island,-12.1568,96.8225,25.99,83,75,6.17,CC,1698627015
188,klyuchi,52.2667,79.1667,-0.24,94,100,2.97,RU,1698627016
189,biltine,14.5333,20.9167,27.16,20,98,3.21,TD,1698627016
190,cut off,29.5427,-90.3381,25.56,83,40,1.54,US,1698626798
191,mukalla,14.5425,49.1242,25.31,73,16,2.17,YE,1698627016
192,peniche,39.3558,-9.3811,16.17,80,70,6.9,PT,1698627016
193,kismayo,-0.3582,42.5454,26.41,82,67,4.01,SO,1698627017
194,keflavik,64.0049,-22.5624,4.24,75,0,3.6,IS,1698627017
195,talnakh,69.4865,88.3972,-19.89,93,32,1.93,RU,1698627017
196,barra de santo antonio,-9.4047,-35.5072,23.6,77,77,3.83,BR,1698627017
197,weno,7.4515,151.8468,28.16,78,96,5.08,FM,1698627017
198,hallsberg,59.0657,15.1117,2.61,95,100,5.66,SE,1698627018
199,lihue,21.9789,-159.3672,27.77,72,75,4.63,US,1698627018
200,truro,50.2653,-5.0544,14.91,74,75,5.14,GB,1698627018
201,bandarbeyla,9.4942,50.8122,25.94,82,100,3.72,SO,1698627018
202,chernomorskoye,45.5039,32.6997,15.62,61,0,2.44,UA,1698627018
203,whakatane,-37.9585,176.9854,15.49,96,100,2.24,NZ,1698626894
204,purpe,64.4803,76.6897,-12.73,91,9,1.83,RU,1698627019
205,labrador city,52.9463,-66.9114,-3.05,68,75,4.63,CA,1698626751
206,imbituba,-28.24,-48.6703,23.83,83,100,1.24,BR,1698627019
207,ubari,26.5921,12.7805,22.06,24,0,3.41,LY,1698627019
208,atafu village,-8.5421,-172.5159,29.09,71,96,5.58,TK,1698627019
209,hithadhoo,-0.6,73.0833,27.13,80,21,7.56,MV,1698627020
210,frontera,26.9333,-101.45,26.86,65,75,5.14,MX,1698627020
211,bilibino,68.0546,166.4372,-19.65,89,12,1.76,RU,1698627020
212,lebu,-37.6167,-73.65,7.95,63,25,2.6,CL,1698627020
213,sao tome,0.3365,6.7273,24.02,94,75,0.0,ST,1698627020
214,luanda,-8.8368,13.2343,25.0,88,75,2.57,AO,1698627020
215,nadym,65.5333,72.5167,-13.03,90,13,1.51,RU,1698627021
216,hamilton,39.1834,-84.5333,13.88,96,100,2.57,US,1698626835
217,verkhniy ufaley,56.0567,60.2306,-3.47,96,100,3.21,RU,1698627021
218,villa gesell,-37.2639,-56.973,15.59,58,100,7.01,AR,1698627021
219,tulun,54.5611,100.5792,-8.7,73,7,1.28,RU,1698627022
220,port blair,11.6667,92.75,25.02,100,20,0.51,IN,1698627022
221,tobelo,1.7284,128.0095,29.66,62,14,0.84,ID,1698627022
222,nizhnevartovsk,60.9344,76.5531,-7.99,62,100,2.0,RU,1698627022
223,saint-francois,46.4154,3.9054,12.03,100,100,2.06,FR,1698627022
224,pacific grove,36.6177,-121.9166,22.97,66,0,2.06,US,1698626834
225,shell cove,-34.5975,150.8633,29.47,45,77,3.13,AU,1698627022
226,gjovik,60.7947,10.6929,-4.47,68,0,1.26,NO,1698627023
227,nouadhibou,20.931,-17.0347,20.99,88,0,5.66,MR,1698626751
228,mao,39.8885,4.2658,19.31,94,20,3.09,ES,1698627023
229,kone,-21.0595,164.8658,26.13,41,0,4.18,NC,1698627023
230,pyhajarvi,67.0701,27.2176,-10.43,99,99,0.58,FI,1698627023
231,port alfred,-33.5906,26.891,14.93,63,94,7.62,ZA,1698627023
232,georgetown,5.4112,100.3354,25.96,93,20,2.68,MY,1698626980
233,mafra,-26.1114,-49.8053,19.63,97,100,0.85,BR,1698627024
234,mweka,-4.85,21.5667,23.07,82,98,0.37,CD,1698627024
235,acarau,-2.8856,-40.12,26.48,79,83,6.45,BR,1698626944
236,rouyn-noranda,48.2398,-79.0288,-0.95,100,100,1.03,CA,1698626980
237,marsa alam,25.0757,34.8918,25.28,81,0,0.71,EG,1698627024
238,churapcha,62.0025,132.4325,-9.41,89,100,2.59,RU,1698627025
239,galveston,29.3669,-94.9669,27.05,86,75,2.06,US,1698626894
240,corner brook,48.9667,-57.9484,4.09,50,95,7.59,CA,1698626968
241,cape coast,5.1053,-1.2466,26.13,86,4,1.94,GH,1698626832
242,sechenovo,55.2244,45.8906,-1.13,94,100,6.97,RU,1698627025
243,coracora,-15.0333,-73.7833,9.75,59,23,1.25,PE,1698627025
244,czarnkow,52.9021,16.5641,13.55,79,100,6.78,PL,1698626498
245,flin flon,54.7682,-101.865,-2.92,81,100,3.79,CA,1698627026
246,aksu,41.1231,80.2644,10.82,38,87,1.16,CN,1698627026
247,idrinskoye,54.3708,92.1358,-2.25,48,0,0.77,RU,1698627026
248,leh,34.1667,77.5833,0.79,36,94,1.14,IN,1698627026
249,kulgam,33.65,75.0167,8.0,48,7,0.74,IN,1698627026
250,bandon,51.7469,-8.7425,8.77,93,100,1.44,IE,1698627027
251,qianjiang,30.4151,112.8859,22.08,59,0,2.27,CN,1698627027
252,uturoa,-16.7333,-151.4333,26.49,78,2,6.0,PF,1698627027
253,ambositra,-20.5167,47.25,15.66,86,9,1.1,MG,1698627028
254,zhenlai,45.8495,123.2973,6.85,17,0,7.25,CN,1698627029
255,antsiranana,-12.2787,49.2917,24.42,77,99,6.99,MG,1698626882
256,reggane,26.7158,0.1714,29.29,15,46,3.18,DZ,1698627029
257,bealanana,-14.55,48.7333,16.79,96,62,1.43,MG,1698627029
258,crane,31.3974,-102.3501,3.12,78,100,9.01,US,1698627030
259,amga,60.8953,131.9608,-8.09,88,100,2.03,RU,1698627030
260,mili,6.0815,171.735,28.49,78,32,5.99,MH,1698627030
261,san julian,21.0167,-102.1667,19.57,44,9,1.25,MX,1698626778
262,ciudad lazaro cardenas,17.9583,-102.2,27.09,82,53,2.4,MX,1698627032
263,ad dawadimi,24.5077,44.3924,21.64,49,100,3.27,SA,1698627032
264,portland,45.5234,-122.6762,13.32,46,20,5.14,US,1698626844
265,broken hill,-31.95,141.4333,24.52,19,57,2.32,AU,1698627033
266,daru,-9.0763,143.2092,26.29,82,100,7.6,PG,1698627033
267,roanoke rapids,36.4615,-77.6542,21.49,100,0,0.0,US,1698627034
268,nenjiang,49.1833,125.2167,3.9,36,3,8.12,CN,1698627034
269,ust'-ordynskiy,52.805,104.7508,-8.15,58,100,2.89,RU,1698627035
270,guozhen,34.3659,107.359,18.67,58,2,1.3,CN,1698627036
271,gebeit,21.0667,36.3167,23.31,82,0,2.74,SD,1698627036
272,polyarnyy,69.1989,33.4478,-6.41,93,100,2.96,RU,1698627036
273,raduzhnyy,62.0961,77.475,-12.17,97,74,0.18,RU,1698627037
274,betul,21.9153,77.8961,17.2,61,100,1.58,IN,1698627037
275,dul'durga,50.6761,113.5931,-6.5,39,100,0.96,RU,1698627038
276,salalah,17.0151,54.0924,25.05,83,0,2.06,OM,1698627038
277,caucete,-31.6518,-68.2811,25.52,8,24,1.19,AR,1698627039
278,ialysos,36.4104,28.1655,23.29,83,0,1.34,GR,1698627039
279,loma de cabrera,19.4333,-71.6,24.09,91,78,1.19,DO,1698627040
280,ksar chellala,35.2122,2.3189,18.45,28,59,3.93,DZ,1698627040
281,chavusy,53.8075,30.9712,3.73,93,100,6.47,BY,1698627040
282,arkhangel'sk,64.5401,40.5433,-4.37,81,68,2.34,RU,1698627041
283,zaporizhia,47.8167,35.1833,10.93,71,13,2.22,UA,1698627042
284,utrik,11.2278,169.8474,28.0,80,36,9.19,MH,1698627042
285,egilsstadir,65.2653,-14.3948,-0.05,100,40,2.06,IS,1698627042
286,tralee,52.2704,-9.7026,8.66,94,98,2.01,IE,1698627042
287,santa ana,33.7456,-117.8678,25.96,13,0,5.66,US,1698626988
288,susuman,62.7833,148.1667,-13.16,92,89,0.72,RU,1698627043
289,kirensk,57.7853,108.1119,-3.91,51,100,3.58,RU,1698626774
290,mawlamyinegyunn,16.3833,95.2667,25.62,89,100,1.93,MM,1698627043
291,poronaysk,49.2167,143.1167,4.64,54,0,0.39,RU,1698627043
292,riyadh,24.6877,46.7219,24.08,33,100,2.47,SA,1698626824
293,bedele,8.456,36.353,13.26,99,100,0.23,ET,1698627043
294,buala,-8.145,159.5921,29.76,70,98,2.57,SB,1698627043
295,korla,41.7597,86.1469,9.91,44,100,1.38,CN,1698627043
296,winnemucca,40.973,-117.7357,8.03,17,0,3.6,US,1698626842
297,gaspe,48.8334,-64.4819,1.12,60,20,3.09,CA,1698627044
298,mount isa,-20.7333,139.5,34.87,31,100,6.17,AU,1698627044
299,whittlesea,-32.1759,26.8244,4.38,85,51,6.24,ZA,1698627044
300,shingu,33.7333,135.9833,18.8,50,0,0.64,JP,1698627044
301,belmonte,-15.8631,-38.8828,24.19,74,23,4.57,BR,1698627045
302,nar'yan-mar,67.6713,53.087,-8.83,86,100,5.81,RU,1698627045
303,sosnogorsk,63.6023,53.8817,-5.81,85,100,4.47,RU,1698627045
304,rongelap,11.1635,166.8941,28.74,74,13,8.1,MH,1698627045
305,jersey village,29.8877,-95.563,21.05,81,100,4.63,US,1698627009
306,puerto baquerizo moreno,-0.9,-89.6,23.27,79,100,5.1,EC,1698627008
307,brokopondo,4.75,-55.1667,28.37,70,87,5.08,SR,1698627045
308,zarechnyy,53.2036,45.1923,3.74,93,100,7.15,RU,1698627046
309,somerset,40.5668,-74.5496,13.03,90,100,1.54,US,1698627021
310,fort scott,37.8398,-94.7083,3.54,83,100,6.43,US,1698627046
311,bansdih,25.8833,84.2167,20.45,60,6,0.89,IN,1698627046
312,ivdel',60.6911,60.4206,-3.78,65,100,4.02,RU,1698627046
313,floriano,-6.7669,-43.0225,27.58,32,8,2.22,BR,1698627046
314,polatli,39.5772,32.1413,15.65,61,100,2.13,TR,1698627046
315,general acha,-37.377,-64.6043,11.74,59,100,6.91,AR,1698627047
316,mata-utu,-13.2816,-176.1745,28.21,74,76,1.3,WF,1698627047
317,kalmunai,7.4167,81.8167,25.29,84,68,1.77,LK,1698627047
318,remire-montjoly,4.9167,-52.2667,27.02,89,0,2.06,GF,1698627047
319,port mathurin,-19.6833,63.4167,24.05,83,40,2.06,MU,1698627047
320,luis gil perez,17.8667,-93.05,27.73,81,47,2.17,MX,1698627047
321,fegyvernek,47.2667,20.5333,14.01,59,38,5.3,HU,1698627047
322,nieuw amsterdam,5.8833,-55.0833,28.34,83,85,5.29,SR,1698627048
323,touros,-5.1989,-35.4608,25.24,75,14,6.32,BR,1698627048
324,melioratorov,57.2107,65.6077,-3.79,100,100,6.0,RU,1698627048
325,nova sintra,14.8667,-24.7167,22.75,71,82,3.23,CV,1698627048
326,mansa,29.9833,75.3833,19.66,44,5,2.1,IN,1698627048
327,delacombe,-37.5891,143.8147,15.97,61,20,3.58,AU,1698627048
328,dabakala,8.3667,-4.4333,25.2,72,0,0.71,CI,1698627048
329,kerikeri,-35.2268,173.9474,18.84,93,100,0.89,NZ,1698627043
330,krasnovishersk,60.4078,57.082,-4.43,67,100,3.32,RU,1698627049
331,ob',54.9872,82.7166,-8.01,86,0,2.0,RU,1698627049
332,tadine,-21.55,167.8833,22.64,55,0,5.52,NC,1698627049
333,jamestown,42.097,-79.2353,8.9,97,100,0.89,US,1698627049
334,kaiapoi,-43.3783,172.6401,18.17,72,100,8.23,NZ,1698627049
335,akureyri,65.6835,-18.0878,-7.04,93,0,0.0,IS,1698627049
336,karratha,-20.7377,116.8463,34.5,21,48,2.39,AU,1698627050
337,ivnya,51.0629,36.1343,5.29,90,48,1.98,RU,1698627050
338,lompoc,34.6391,-120.4579,22.08,34,0,3.6,US,1698627050
339,cururupu,-1.8283,-44.8683,24.34,84,19,1.95,BR,1698627032
340,ma'rib,15.4591,45.3253,24.65,47,52,1.9,YE,1698627050
341,vorkuta,67.5,64.0,-18.91,99,43,1.78,RU,1698627050
342,samus',56.7475,84.6992,-9.26,89,10,2.06,RU,1698627050
343,anjangaon,21.1631,77.3094,19.45,61,75,1.62,IN,1698627050
344,ridgecrest,35.6225,-117.6709,17.05,12,0,3.58,US,1698627051
345,south bay,26.664,-80.7162,25.01,76,5,4.66,US,1698627051
346,pariaman,-0.619,100.12,25.03,82,100,0.95,ID,1698627051
347,begamganj,23.6,78.3333,17.89,50,63,1.52,IN,1698627051
348,marquette,46.5333,-87.6335,-0.18,65,100,1.34,US,1698627051
349,boguchany,58.3814,97.4531,-7.86,79,12,1.34,RU,1698627051
350,pachora,20.6667,75.35,20.75,51,90,1.57,IN,1698627051
351,dunedin,-45.8742,170.5036,15.45,69,8,2.68,NZ,1698627052
352,qaisumah,28.3112,46.1273,20.98,32,40,0.0,SA,1698627052
353,zapolyarnyy,69.4154,30.8136,-8.4,95,100,1.62,RU,1698627052
354,vila velha,-20.3297,-40.2925,24.97,78,0,5.14,BR,1698627052
355,san salvador,13.6894,-89.1872,23.13,97,100,1.18,SV,1698626740
356,tidjikja,18.5564,-11.4271,27.83,18,4,1.25,MR,1698627052
357,beledweyne,4.7358,45.2036,23.09,90,100,1.64,SO,1698627052
358,minden,52.2833,8.9167,13.12,75,100,8.23,DE,1698627052
359,jutai,-5.1833,-68.9,23.54,98,100,1.52,BR,1698627053
360,abengourou,6.7297,-3.4964,21.99,97,19,0.58,CI,1698627053
361,caernarfon,53.1413,-4.2702,11.46,35,75,4.92,GB,1698627053
362,hammerfest,70.6634,23.6821,-1.75,86,75,1.03,NO,1698627053
363,bel ombre,-4.6167,55.4167,26.91,83,20,2.06,SC,1698627053
364,tofol,5.3248,163.0078,25.88,89,100,7.2,FM,1698627053
365,dennery,13.8996,-60.8879,26.07,97,20,3.6,LC,1698627053
366,san felipe,10.3399,-68.7425,23.05,95,100,0.37,VE,1698627053
367,ingeniero guillermo n. juarez,-23.9,-61.85,27.02,73,100,9.83,AR,1698627054
368,tateyama,34.9833,139.8667,18.59,55,0,4.47,JP,1698627054
369,bani walid,31.7566,13.9942,20.14,68,100,2.45,LY,1698627054
370,phatthalung,7.5,100.0833,27.76,75,78,1.8,TH,1698627054
371,urangan,-25.3,152.9,21.83,57,0,2.46,AU,1698627054
372,rio preto da eva,-2.6994,-59.6997,31.63,36,100,1.28,BR,1698627054
373,richards bay,-28.783,32.0377,16.22,53,87,6.29,ZA,1698627055
374,anadyr,64.75,177.4833,-1.72,92,75,9.0,RU,1698627055
375,ebon,4.582,168.6964,28.45,73,100,3.1,MH,1698627055
376,mizdah,31.4451,12.9801,20.48,34,99,3.18,LY,1698627055
377,qaqortoq,60.7167,-46.0333,4.34,76,100,3.27,GL,1698627055
378,iranshahr,27.2025,60.6848,23.19,53,20,0.0,IR,1698627055
379,san antonio de pale,-1.4014,5.6325,26.33,83,55,3.78,GQ,1698626776
380,baza,37.4907,-2.7726,14.85,77,100,2.15,ES,1698627055
381,bikenibeu village,1.3673,173.1241,31.98,66,20,2.57,KI,1698627056
382,mirny,62.5353,113.9611,-9.25,93,100,2.63,RU,1698627056
383,dakhla,23.6848,-15.958,20.49,90,2,5.18,EH,1698626784
384,biloela,-24.4167,150.5,28.49,31,13,1.69,AU,1698627056
385,hirara,24.8,125.2833,26.15,61,20,4.63,JP,1698627056
386,greenville,35.6127,-77.3663,21.01,90,0,0.0,US,1698626697
387,ulsteinvik,62.3432,5.8487,5.42,54,0,4.02,NO,1698627056
388,cole harbour,44.6724,-63.4751,6.66,71,90,1.79,CA,1698627057
389,nandgaon,20.3167,74.65,20.56,48,91,1.38,IN,1698627057
390,mungwi,-10.1732,31.3694,20.47,59,100,0.95,ZM,1698627057
391,malango,-2.9627,119.9001,27.74,51,8,1.45,ID,1698627057
392,westport,41.1415,-73.3579,13.51,91,100,5.14,US,1698626870
393,longyearbyen,78.2186,15.6401,-5.09,86,40,4.12,SJ,1698627057
394,santarem,-2.4431,-54.7083,31.07,70,0,4.12,BR,1698627057
395,warrnambool,-38.3833,142.4833,11.76,87,100,7.68,AU,1698627058
396,minas de marcona,-15.2119,-75.1103,15.27,85,58,5.62,PE,1698627058
397,walvis bay,-22.9575,14.5053,13.99,87,0,2.97,NA,1698627058
398,akjoujt,19.6969,-14.4164,26.32,33,0,4.09,MR,1698627058
399,turuntayevo,52.2,107.6167,-10.95,50,100,1.18,RU,1698627058
400,nabire,-3.3667,135.4833,27.45,80,60,0.22,ID,1698627058
401,kazanskoye,55.6448,69.235,-2.6,95,100,7.54,RU,1698627058
402,ritchie,-29.038,24.6028,12.48,57,95,8.38,ZA,1698627059
403,nedryhayliv,50.834,33.8763,6.43,91,95,4.05,UA,1698627059
404,lom sak,16.7798,101.2422,23.94,100,20,0.0,TH,1698627059
405,pisco,-13.7,-76.2167,20.03,77,0,9.26,PE,1698627059
406,general villegas,-35.0328,-63.0125,15.73,72,11,4.17,AR,1698627059
407,bride,54.3826,-4.3892,10.74,83,100,11.2,IM,1698627059
408,fuli,46.7217,131.1394,12.57,39,82,2.7,CN,1698627059
409,bodaybo,57.8506,114.1933,-6.86,51,100,2.25,RU,1698627060
410,murzuq,25.9155,13.9184,21.86,27,0,4.07,LY,1698627060
411,angaur state,6.906,134.13,28.23,75,45,3.95,PW,1698626794
412,al jaradiyah,16.5795,42.9124,25.72,70,83,1.99,SA,1698627060
413,lincheng,19.9078,109.6858,24.78,87,94,6.43,CN,1698627060
414,hauterive,46.0901,3.4459,13.42,97,100,1.47,FR,1698627060
415,tutoia,-2.7619,-42.2744,27.0,77,61,5.64,BR,1698627060
416,sinop,41.7711,34.8709,14.95,78,100,1.48,TR,1698627060
417,shimoda,34.6667,138.95,21.72,56,0,1.32,JP,1698627061
418,celestun,20.8667,-90.4,26.45,75,14,6.37,MX,1698627061
419,bermeo,43.4209,-2.7215,16.34,77,100,4.7,ES,1698627061
420,tubarjal,30.4999,38.216,18.38,66,67,2.59,SA,1698627061
421,gwadar,25.1216,62.3254,25.71,71,0,4.31,PK,1698626844
422,fiditi,7.7136,3.9172,24.24,91,99,0.88,NG,1698627061
423,effingham,32.3669,-81.3332,21.97,90,0,2.1,US,1698627061
424,balykchy,42.4557,76.1861,8.12,58,100,0.97,KG,1698627056
425,diu,20.7141,70.9822,24.51,42,13,3.29,IN,1698627062
426,pandan,14.0453,124.1694,28.12,80,45,5.91,PH,1698627062
427,patti,31.2808,74.8572,18.04,46,39,1.47,IN,1698627062
428,santana,-0.0583,-51.1817,29.1,65,20,3.6,BR,1698627062
429,yuzhno-kurilsk,44.0306,145.8556,7.99,76,0,1.76,RU,1698627062
430,pangody,65.85,74.4859,-14.81,95,15,1.75,RU,1698627063
431,sidney,-33.8679,151.2073,32.41,28,0,8.23,AU,1698626968
432,la ronge,55.1001,-105.2842,-1.86,64,100,7.72,CA,1698627063
433,west bay,19.3667,-81.4167,26.11,91,75,1.54,KY,1698627063
434,swakopmund,-22.6833,14.5333,14.21,84,0,2.54,NA,1698627063
435,obo,5.3998,26.4869,21.27,89,65,1.48,CF,1698627063
436,tura,25.5198,90.2201,20.36,91,1,1.02,IN,1698626766
437,ciudad bolivar,8.1222,-63.5497,29.01,63,65,2.47,VE,1698627064
438,kataysk,56.289,62.5841,-2.35,97,100,5.8,RU,1698627064
439,enewetak,11.3474,162.3373,28.93,72,80,9.27,MH,1698627064
440,pechora,65.1472,57.2244,-8.97,80,99,1.79,RU,1698627064
441,topki,55.2769,85.6163,-10.11,91,100,3.27,RU,1698627064
442,mormugao,15.4,73.8,25.59,83,20,1.03,IN,1698627064
443,laojunmiao,39.8333,97.7333,9.02,25,80,2.84,CN,1698627064
444,sedhiou,12.7081,-15.5569,23.34,95,10,1.58,SN,1698627065
445,benguela,-12.5763,13.4055,24.09,87,41,1.91,AO,1698627065
446,rudnichnyy,59.617,52.4703,-3.69,89,100,2.31,RU,1698627065
447,chonchi,-42.6128,-73.8092,5.07,97,100,3.5,CL,1698626794
448,palmer,42.1584,-72.3287,9.02,84,100,3.09,US,1698627015
449,san nicolas de bari,22.7844,-81.9133,24.85,79,7,5.86,CU,1698627065
450,bonthe,7.5264,-12.505,25.95,85,44,2.39,SL,1698627066
451,north platte,41.1239,-100.7654,-1.06,70,75,5.66,US,1698627066
452,sovetskiy,61.3614,63.5842,-5.06,45,100,4.02,RU,1698627066
453,madimba,-10.4,40.3333,25.33,89,65,3.75,TZ,1698627066
454,aykhal,66.0,111.5,-24.59,99,90,1.52,RU,1698627066
455,taro,-8.3862,115.28,25.0,51,47,1.36,ID,1698627066
456,namibe,-15.1961,12.1522,19.5,87,6,1.56,AO,1698627066
457,gadzhiyevo,69.2551,33.3362,-6.81,94,100,3.01,RU,1698627066
458,klaksvik,62.2266,-6.589,4.51,70,100,9.74,FO,1698627067
459,campo viera,-27.3833,-55.0333,21.51,98,95,1.04,AR,1698627067
460,morinda,30.7919,76.4964,17.47,47,9,1.25,IN,1698627067
461,flying fish cove,-10.4217,105.6791,26.82,83,75,4.63,CX,1698627067
462,cao bang,22.6667,106.25,21.73,82,100,0.89,VN,1698627068
463,hwange,-18.3693,26.5019,22.95,60,99,5.41,ZW,1698627063
464,caleta de carquin,-11.0925,-77.6267,19.83,84,87,4.56,PE,1698627068
465,tafuna,-14.3358,-170.72,28.97,74,75,3.09,AS,1698627068
466,tamanrasset,22.785,5.5228,20.95,18,40,1.54,DZ,1698627068
467,bekovo,52.4663,43.712,2.29,80,100,5.89,RU,1698627068
468,pimentel,-6.8367,-79.9342,21.16,83,0,5.66,PE,1698627068
469,tazacorte,28.629,-17.9293,21.54,80,0,2.68,ES,1698627068
470,saudarkrokur,65.7461,-19.6394,-0.75,80,17,3.55,IS,1698627069
471,graaff-reinet,-32.2522,24.5308,4.96,87,6,1.98,ZA,1698627069
472,kourou,5.1552,-52.6478,27.03,84,77,5.17,GF,1698627091
473,kolda,12.8833,-14.95,28.17,89,40,5.14,SN,1698627091
474,rabo de peixe,37.8,-25.5833,14.73,99,40,2.68,PT,1698627091
475,artesia,33.8658,-118.0831,26.27,21,0,2.57,US,1698627063
476,mar del plata,-38.0023,-57.5575,14.97,63,0,2.06,AR,1698627092
477,yeed,4.55,43.0333,22.73,76,100,7.13,SO,1698627092
478,kaoma,-14.7833,24.8,20.1,74,93,1.64,ZM,1698627092
479,molchanovo,57.5817,83.7692,-9.88,84,5,1.97,RU,1698627092
480,argo,37.6333,22.7333,19.44,71,0,1.47,GR,1698627092
481,tambura,5.6,27.4667,21.46,91,52,0.68,SS,1698627092
482,zykovo,55.9519,93.1461,-5.77,77,1,1.1,RU,1698627093
483,camayenne,9.535,-13.6878,28.05,83,20,3.09,GN,1698627093
484,manta,-0.95,-80.7333,25.88,73,75,4.63,EC,1698627093
485,fort st. john,56.2499,-120.8529,-2.06,74,75,2.57,CA,1698626865
486,vieste,41.8825,16.175,19.48,70,5,4.71,IT,1698627093
487,lebaksiu,-7.0496,109.1441,29.36,55,95,1.46,ID,1698627093
488,al kharj,24.155,47.3346,23.32,34,100,2.17,SA,1698626906
489,bochum,51.4833,7.2167,12.83,71,100,1.79,DE,1698627093
490,port moresby,-9.4431,147.1797,29.68,70,75,5.14,PG,1698627094
491,xilin hot,43.9667,116.0333,1.93,39,100,1.74,CN,1698627094
492,sao fidelis,-21.6461,-41.7469,24.97,92,100,0.61,BR,1698627081
493,safford,32.834,-109.7076,22.51,19,0,7.2,US,1698627094
494,coahuayana de hidalgo,18.7,-103.6583,26.31,88,76,1.61,MX,1698627094
495,sihanoukville,10.6093,103.5296,26.97,89,40,1.03,KH,1698627094
496,zheleznogorsk,52.331,35.3711,1.29,87,94,3.13,RU,1698627094
497,nuuk,64.1835,-51.7216,6.34,52,100,10.8,GL,1698627095
498,fernandina beach,30.6697,-81.4626,23.32,92,0,2.57,US,1698627041
499,podgornoye,51.735,39.1496,3.14,81,75,3.0,RU,1698627095
500,tebessa,35.4042,8.1242,20.6,28,0,2.06,DZ,1698627095
501,montella,40.8437,15.0179,15.55,54,0,0.72,IT,1698627095
502,sivasli,38.4994,29.6836,14.51,66,100,1.8,TR,1698627095
503,stephenville,32.2207,-98.2023,4.02,97,100,8.23,US,1698627095
504,nabinagar,23.8917,90.9733,21.07,83,58,1.49,BD,1698627096
505,at taj,24.2049,23.2857,20.12,38,0,3.93,LY,1698627094
506,dubbo,-32.25,148.6167,29.07,17,6,11.83,AU,1698627096
507,santa rosa del sur,7.9644,-74.0544,21.18,95,98,1.39,CO,1698627096
508,holbrook,40.8123,-73.0784,13.71,95,100,2.24,US,1698627096
509,coquimbo,-29.9533,-71.3436,15.85,88,40,4.12,CL,1698627097
510,san mariano,7.5,126.0,27.72,75,35,1.51,PH,1698627097
511,dzyarzhynsk,53.6832,27.138,7.64,95,100,5.13,BY,1698627097
512,saldanha,-33.0117,17.9442,16.03,56,0,6.55,ZA,1698627097
513,masterton,-40.9597,175.6575,13.52,74,100,4.46,NZ,1698627097
514,farah,32.5,62.5,18.73,35,0,2.1,AF,1698627097
515,mount gambier,-37.8333,140.7667,11.41,89,99,5.58,AU,1698627098
516,mahriz,31.5917,54.4318,14.28,33,94,0.83,IR,1698627098
517,san luis,-33.295,-66.3356,18.37,67,2,6.89,AR,1698627008
518,malvan,16.0667,73.4667,26.4,66,93,0.77,IN,1698627098
519,kimbe,-5.5502,150.1429,29.24,76,76,0.69,PG,1698627119
520,puyang,29.4603,119.8861,20.76,68,1,0.7,CN,1698627119
521,matoury,4.8483,-52.3317,26.98,89,0,2.06,GF,1698627119
522,newman,37.3138,-121.0208,21.13,24,0,0.45,US,1698626933
523,revda,56.801,59.9303,-4.24,95,100,4.12,RU,1698627120
524,alice town,25.7167,-79.3,26.25,76,2,10.12,BS,1698627120
525,labuan,5.2767,115.2417,28.2,94,20,1.03,MY,1698627120
526,ghadamis,30.1337,9.5007,24.97,20,100,3.78,LY,1698627120
527,fiambala,-27.6871,-67.6149,21.61,11,0,2.27,AR,1698627120
528,mali,12.079,-12.2982,16.8,83,62,0.76,GN,1698627120
529,orumiyeh,37.5527,45.0761,8.75,76,0,3.09,IR,1698627121
530,charters towers,-20.1,146.2667,29.12,27,100,5.21,AU,1698627121
531,andrelandia,-21.7397,-44.3092,20.47,94,100,2.68,BR,1698627121
532,magadan,59.5667,150.8,-3.59,70,8,1.05,RU,1698627121
533,piti village,13.4626,144.6933,31.49,76,40,5.66,GU,1698627121
534,coron,11.9986,120.2043,29.27,73,82,0.53,PH,1698627121
535,kailua-kona,19.6406,-155.9956,29.99,68,20,5.14,US,1698627121
536,rocha,-34.4833,-54.3333,16.19,90,100,0.99,UY,1698627121
537,waingapu,-9.6567,120.2641,30.04,61,48,4.39,ID,1698627122
538,sisimiut,66.9395,-53.6735,-2.61,73,100,3.77,GL,1698627122
539,edson,53.5835,-116.4356,2.08,48,100,1.54,CA,1698627122
540,waynesboro,38.0685,-78.8895,24.32,66,100,0.0,US,1698627122
541,dunda,-8.1167,34.25,20.09,61,96,1.41,TZ,1698627122
542,fortuna,40.5982,-124.1573,17.19,55,0,0.0,US,1698626958
543,stratford,41.1845,-73.1332,13.37,93,100,5.14,US,1698627123
544,monte patria,-30.6919,-70.9467,16.38,59,4,1.11,CL,1698626844
545,farafangana,-22.8167,47.8333,22.84,93,4,3.26,MG,1698627123
546,al muwayh,22.4333,41.7583,19.47,77,6,2.32,SA,1698627123
547,shortandy,51.7006,70.9994,8.14,96,100,6.68,KZ,1698627123
548,bangar,16.8936,120.4243,28.86,65,66,0.78,PH,1698627128
549,manokwari,-0.8667,134.0833,28.4,67,21,1.72,ID,1698626960
550,balcarce,-37.8462,-58.2552,14.34,74,100,4.59,AR,1698627132
551,mocimboa,-11.3167,40.35,26.01,80,96,3.63,MZ,1698627131
552,kievka,50.2619,71.5514,9.9,86,32,9.58,KZ,1698627132
553,kralendijk,12.15,-68.2667,28.99,79,20,1.54,BQ,1698627133
554,sao joao da barra,-21.6403,-41.0511,25.05,86,92,8.33,BR,1698627133
555,bengkulu,-3.8004,102.2655,25.31,79,100,1.45,ID,1698627133
556,vilyuchinsk,52.9306,158.4028,3.85,80,100,2.61,RU,1698627133
557,pokhvistnevo,53.6524,52.1274,1.04,96,100,7.63,RU,1698627133
558,tonota,-21.4833,27.4833,15.03,81,100,8.05,BW,1698627133
559,brioude,45.1667,3.4167,15.57,70,99,5.81,FR,1698627134
560,collie,-33.3667,116.15,14.87,46,6,3.03,AU,1698627134
561,kuala belait,4.5833,114.1833,27.09,79,100,1.22,BN,1698627134
562,monrovia,6.3005,-10.7969,24.87,84,0,2.02,LR,1698627134
563,sechura,-5.5569,-80.8222,21.38,73,100,8.26,PE,1698627134
564,barra,-11.0894,-43.1417,26.45,43,7,3.56,BR,1698627134
565,borogontsy,62.6683,131.1683,-10.66,91,100,2.17,RU,1698627135
566,tosontsengel,48.7567,98.2839,-3.86,95,100,1.65,MN,1698627046
567,inari,68.906,27.0288,-7.89,96,100,1.24,FI,1698627135
568,nikolayevsk-on-amure,53.1406,140.73,3.1,59,19,0.74,RU,1698627135
569,aztec,36.8222,-107.9929,8.95,63,0,0.89,US,1698627135
570,ta'if,21.2703,40.4158,14.56,71,7,1.41,SA,1698627135
571,wegscheid,48.6014,13.7873,8.71,86,100,0.96,DE,1698627136
572,madisonville,37.3281,-87.4989,11.92,99,100,0.45,US,1698627136
573,nishinoomote,30.7333,131.0,21.31,60,20,3.09,JP,1698627136
574,port macquarie,-31.4333,152.9167,25.5,51,0,6.07,AU,1698626443
575,wenatchee,47.4235,-120.3103,7.16,58,0,3.09,US,1698627025
576,santanyi,39.3546,3.1291,18.23,83,72,3.02,ES,1698627137
577,camiri,-20.05,-63.5167,25.33,66,100,0.74,BO,1698627137
578,karystos,38.0133,24.4161,20.1,83,0,3.54,GR,1698627137
579,mazzarino,37.3043,14.2141,16.63,69,100,1.24,IT,1698627137
580,geraldton,-28.7667,114.6,20.23,64,2,8.75,AU,1698627137
581,ardakan,32.31,54.0175,19.05,30,100,1.89,IR,1698627137
582,itoman,26.1247,127.6694,25.43,65,20,4.63,JP,1698627138
583,krasnopillya,50.7746,35.2597,5.64,92,98,2.81,UA,1698627138
584,miquelon,47.0975,-56.3814,6.0,58,84,13.86,PM,1698627138
585,wotho,10.1657,166.0102,28.75,74,12,7.3,MH,1698627138
586,kayangel,8.0823,134.7173,28.53,74,16,4.13,PW,1698627138
587,smithers,54.7804,-127.1743,0.18,64,75,1.03,CA,1698627014
588,murun-kuren,49.6342,100.1625,-3.2,87,100,0.99,MN,1698627138
589,sarai sidhu,30.5949,71.9698,21.93,36,72,2.62,PK,1698627139
590,luganville,-15.5333,167.1667,27.1,73,81,3.65,VU,1698627139
591,wangaratta,-36.3667,146.3333,20.26,59,100,4.8,AU,1698627144
592,bischofsheim an der rhon,50.4024,10.0075,9.92,95,96,3.09,DE,1698627147
593,natal,-5.795,-35.2094,26.12,73,40,4.12,BR,1698627148
594,calama,-22.4667,-68.9333,14.27,24,0,6.69,CL,1698627148
595,xiaoshi,41.2971,124.1209,13.85,85,100,1.87,CN,1698627148
596,bathsheba,13.2167,-59.5167,28.34,83,20,7.2,BB,1698627148
597,south hedland,-20.4089,118.5983,29.96,74,75,5.66,AU,1698627148
598,ascope,-7.7144,-79.1078,18.63,71,100,1.72,PE,1698627148
